,City,Cloudiness,Country,Date,Humidity,Lat,Lng,Max Temp,Wind Speed
0,Mataura,92,NZ,1547180533,73,-46.19,168.86,13.21,9.31
1,Arraial do Cabo,24,BR,1547180576,88,-22.97,-42.02,24.89,7.61
2,Hobart,20,AU,1547179200,42,-42.88,147.33,29.0,6.7
3,Kangaatsiaq,64,GL,1547180543,100,68.31,-53.46,-11.67,3.91
4,Tuktoyaktuk,20,CA,1547175600,73,69.44,-133.03,-34.0,4.1
5,San Cristobal,75,EC,1547179200,100,-0.39,-78.55,13.0,1.5
6,Lavrentiya,0,RU,1547180586,82,65.58,-170.99,-22.42,6.61
7,Vanimo,0,PG,1547180587,100,-2.67,141.3,27.76,4.21
8,Deputatskiy,48,RU,1547180589,0,69.3,139.9,-37.42,1.26
9,Grand Gaube,40,MU,1547179200,78,-20.01,57.66,28.0,4.6
10,Kodiak,90,US,1547178900,61,39.95,-94.76,2.2,3.1
11,Albany,90,US,1547179020,57,42.65,-73.75,-3.9,8.2
12,Busselton,0,AU,1547180592,97,-33.64,115.35,20.29,1.71
13,Soni,0,TZ,1547180595,92,-4.85,38.37,17.44,1.16
14,Esperance,0,TT,1547179200,88,10.24,-61.45,24.0,2.66
15,Robertsport,0,LR,1547180597,100,6.75,-11.37,27.34,3.56
16,Basco,1,US,1547178900,73,40.33,-91.2,-3.9,3.1
17,San Patricio,56,PY,1547180599,94,-26.98,-56.83,24.31,1.11
18,Bluff,92,AU,1547180600,76,-23.58,149.07,26.76,4.66
19,Bogotol,8,RU,1547180602,69,56.21,89.53,-20.77,3.31
20,Qaanaaq,24,GL,1547180603,100,77.48,-69.36,-27.94,3.81
21,Hermanus,0,ZA,1547180604,95,-34.42,19.24,9.56,1.86
22,Punta Arenas,75,CL,1547179200,66,-53.16,-70.91,12.0,5.7
23,Port Alfred,64,ZA,1547180606,95,-33.59,26.89,18.76,2.71
24,Rikitea,44,PF,1547180324,99,-23.12,-134.97,26.51,7.36
25,Hilo,1,US,1547178780,73,19.71,-155.08,23.3,2.6
26,Vaini,0,IN,1547179200,36,15.34,74.49,24.0,2.6
27,Nganjuk,36,ID,1547180610,80,-7.6,111.9,28.76,1.61
28,Puerto Ayora,32,EC,1547180610,100,-0.74,-90.35,24.51,2.66
29,Lebu,0,ET,1547180611,71,8.96,38.73,-1.69,1.21
30,Cape Town,40,ZA,1547179200,82,-33.93,18.42,17.0,6.2
31,Ushuaia,40,AR,1547179200,58,-54.81,-68.31,13.0,8.7
32,Saint-Philippe,90,CA,1547179200,66,45.36,-73.48,-11.6,9.8
33,Tilichiki,44,RU,1547180615,82,60.47,166.1,-5.37,4.21
34,Laje,88,BR,1547180616,96,-13.18,-39.42,21.51,2.26
35,Santiago del Estero,88,AR,1547180616,71,-27.8,-64.26,19.56,7.76
36,Erzin,40,TR,1547178600,80,36.95,36.2,6.0,1.5
37,Mount Gambier,0,AU,1547179200,14,-37.83,140.78,33.0,7.2
38,Norman Wells,75,CA,1547175600,65,65.28,-126.83,-37.0,1.5
39,Kapiri Mposhi,92,ZM,1547180620,98,-13.97,28.68,18.21,2.71
40,Sur,8,OM,1547180621,100,22.57,59.53,21.59,1.11
41,Chokurdakh,32,RU,1547180621,0,70.62,147.9,-38.99,1.41
42,Tasiilaq,80,GL,1547178600,73,65.61,-37.64,-7.0,7.2
43,West Fargo,1,US,1547180100,72,46.88,-96.9,-8.9,3.6
44,Itaituba,92,BR,1547180624,100,-4.26,-55.99,22.21,1.06
45,Ahuimanu,1,US,1547179020,84,21.44,-157.84,25.6,2.76
46,Asbury Park,1,US,1547178960,55,33.46,-86.74,2.2,1.5
47,Yellowknife,90,CA,1547178480,76,62.45,-114.38,-23.0,4.6
48,Constitucion,5,MX,1547174700,37,23.99,-104.67,15.0,6.2
49,Yeniseysk,44,RU,1547180628,66,58.45,92.17,-17.97,2.86
50,Mar del Plata,0,AR,1547180628,46,-46.43,-67.52,17.09,8.06
51,Santona,40,ES,1547179200,93,43.44,-3.46,3.0,1.0
52,Hearst,0,CA,1547180631,61,49.69,-83.67,-21.87,2.06
53,Atar,20,MR,1547180632,37,20.52,-13.05,6.21,1.41
54,Bathsheba,20,BB,1547179200,74,13.22,-59.52,26.0,5.1
55,Robstown,90,US,1547180100,87,27.79,-97.67,16.7,3.01
56,Saint-Georges,76,CA,1547180636,64,46.12,-70.67,-6.84,4.76
57,Nikolskoye,75,RU,1547179200,85,59.7,30.79,-5.0,5.0
58,Castro,32,CL,1547179200,93,-42.48,-73.76,6.0,1.0
59,Saskylakh,56,RU,1547180640,0,71.97,114.09,-40.42,1.41
60,Hami,76,CN,1547180640,69,42.84,93.51,-12.09,1.81
61,Okha,0,RU,1547180641,84,53.59,142.95,-16.07,7.36
62,Thung Song,75,TH,1547179200,70,8.16,99.67,30.0,3.6
63,Kuytun,88,RU,1547180644,82,54.34,101.51,-11.04,3.01
64,Georgetown,20,GY,1547179200,94,6.8,-58.16,23.0,2.1
65,Butaritari,76,KI,1547180646,100,3.07,172.79,29.89,3.86
66,Vryburg,0,ZA,1547180647,57,-26.96,24.73,14.71,1.16
67,Necochea,0,AR,1547180648,100,-38.55,-58.74,7.96,1.91
68,Wajir,0,KE,1547175600,73,1.75,40.07,25.0,3.6
69,Avarua,75,CK,1547179200,69,-21.21,-159.78,27.0,5.7
70,Assiniboia,0,CA,1547180650,81,49.63,-105.99,-9.44,2.96
71,Victoria,75,BN,1547179200,62,5.28,115.24,32.0,3.1
72,Cabo San Lucas,20,MX,1547178360,77,22.89,-109.91,20.0,0.36
73,Kortkeros,90,RU,1547179200,92,61.81,51.56,-14.0,2.0
74,San Francisco,20,US,1547179080,92,37.78,-122.42,12.2,0.41
75,Kiunga,0,PG,1547180656,65,-6.12,141.3,31.64,1.61
76,Bethel,1,US,1547178960,76,60.79,-161.76,-27.2,6.2
77,Bisira,64,PA,1547180657,93,8.52,-81.71,19.54,0.96
78,Provideniya,0,RU,1547179200,64,64.42,-173.23,-20.0,6.0
79,Sept-Iles,90,CA,1547175600,79,50.2,-66.38,-5.0,3.6
80,Port Hardy,90,CA,1547175600,93,50.7,-127.42,8.0,9.8
81,Bandarbeyla,92,SO,1547180663,100,9.49,50.81,24.29,9.46
82,Komsomolskiy,24,RU,1547180663,67,67.55,63.78,-23.12,6.26
83,Nouakchott,0,MR,1547179200,51,18.08,-15.98,15.0,5.1
84,Sosnovo,88,RU,1547180666,80,60.56,30.25,-5.59,6.51
85,Tiznit,0,MA,1547180456,97,29.7,-9.73,7.14,1.76
86,Shimoda,75,JP,1547179200,50,34.7,138.93,12.0,3.6
87,Airai,32,TL,1547180670,83,-8.93,125.41,26.39,0.81
88,Waipawa,8,NZ,1547180670,42,-39.94,176.59,24.44,7.01
89,Kapaa,20,US,1547178960,76,22.08,-159.32,24.4,2.6
90,Dikson,24,RU,1547180673,100,73.51,80.55,-28.34,2.56
91,Mahebourg,40,MU,1547179200,78,-20.41,57.7,28.0,4.6
92,Manzhouli,0,CN,1547180674,79,49.6,117.43,-16.22,1.91
93,Bontang,0,ID,1547180676,88,0.12,117.47,29.66,3.96
94,Big Rapids,75,US,1547178960,77,43.7,-85.48,-5.0,1.91
95,Clyde River,1,CA,1547179200,67,70.47,-68.59,-32.0,3.6
96,Santa Luzia,0,BR,1547179200,64,-19.77,-43.85,21.0,3.6
97,Cidreira,48,BR,1547180681,90,-30.17,-50.22,23.09,2.76
98,Geraldton,90,CA,1547179200,64,49.72,-86.95,-19.0,1.0
99,Chuy,80,UY,1547180681,100,-33.69,-53.46,19.09,1.61
100,Kruisfontein,56,ZA,1547180449,94,-34.0,24.73,17.04,2.01
101,Sindor,76,RU,1547180684,81,62.87,51.9,-14.47,3.36
102,Ponta do Sol,48,BR,1547180685,83,-20.63,-46.0,19.29,1.21
103,Touho,100,NC,1547180686,87,-20.78,165.23,25.34,2.56
104,Urucara,92,BR,1547180687,100,-2.54,-57.76,23.04,1.01
105,Outjo,0,NA,1547180688,69,-20.11,16.16,9.89,1.21
106,Atuona,20,PF,1547180689,99,-9.8,-139.03,27.56,7.36
107,Jacareacanga,92,BR,1547180689,99,-6.22,-57.76,22.04,1.46
108,Paamiut,0,GL,1547180690,100,61.99,-49.67,-2.34,2.01
109,Ko Samui,20,TH,1547179200,74,9.54,99.94,30.0,5.1
110,Lata,92,IN,1547180693,98,30.78,78.62,0.66,0.76
111,New Norfolk,20,AU,1547179200,47,-42.78,147.06,29.0,6.7
112,Kavieng,48,PG,1547180695,100,-2.57,150.8,28.69,3.41
113,Klaksvik,56,FO,1547178600,100,62.23,-6.59,6.0,3.6
114,Caravelas,68,BR,1547180697,100,-17.73,-39.27,26.59,4.56
115,Kundla,0,IN,1547180699,66,21.34,71.31,12.41,2.06
116,Nokia,90,FI,1547178600,88,61.48,23.51,0.0,8.2
117,Jamestown,0,AU,1547180700,63,-33.21,138.6,28.96,3.51
118,Stokmarknes,40,NO,1547178600,74,68.56,14.91,3.0,19.0
119,Ancud,12,CL,1547179200,93,-41.87,-73.83,6.0,1.0
120,Ekibastuz,80,KZ,1547180703,75,51.72,75.32,-17.77,1.41
121,Bandar-e Lengeh,0,IR,1547179200,48,26.56,54.88,18.0,3.1
122,Porto Novo,20,BR,1547179200,88,-23.68,-45.44,23.0,1.5
123,Igurusi,88,TZ,1547180706,96,-8.83,33.85,16.21,0.71
124,Ostersund,0,SE,1547178600,57,63.18,14.64,0.0,17.5
125,Pisco,90,PE,1547179200,83,-13.71,-76.2,23.0,2.1
126,Arlit,0,NE,1547180710,79,18.74,7.39,8.34,1.31
127,Namwala,48,ZM,1547180711,100,-15.75,26.45,19.16,1.61
128,Coquimbo,40,CL,1547179200,87,-29.95,-71.34,15.0,3.6
129,Shakawe,44,BW,1547180713,78,-18.36,21.84,22.51,1.31
130,Pedernales,92,EC,1547180714,100,0.07,-80.05,22.21,2.06
131,Javanrud,0,IR,1547179200,85,34.8,46.49,-8.0,1.86
132,Naze,8,NG,1547180716,87,5.43,7.07,24.01,4.11
133,Porto-Vecchio,0,FR,1547179200,92,41.59,9.28,4.0,1.0
134,Bredasdorp,0,ZA,1547179200,81,-34.53,20.04,12.0,1.5
135,Suslovo,20,RU,1547180719,61,56.22,88.12,-21.92,1.51
136,Cherskiy,0,RU,1547180720,53,68.75,161.3,-17.44,3.71
137,Lagoa,0,PT,1547177400,39,37.14,-8.45,10.0,6.2
138,Tiksi,64,RU,1547180722,0,71.64,128.87,-35.47,1.76
139,Wonthaggi,20,AU,1547180723,55,-38.6,145.59,27.54,1.51
140,Chulman,48,RU,1547180724,65,56.84,124.9,-21.09,1.61
141,Flinders,40,AU,1547179200,88,-34.58,150.85,23.0,4.6
142,Guayaramerin,56,BO,1547180725,91,-10.82,-65.36,23.76,0.91
143,Kilindoni,20,TZ,1547180726,100,-7.91,39.67,28.56,5.66
144,Punta Alta,0,AR,1547179200,78,-27.46,-55.82,24.0,4.1
145,Zapolyarnyy,0,RU,1547178600,79,69.43,30.82,-5.0,13.9
146,Souillac,8,FR,1547179200,100,45.6,-0.6,0.0,1.0
147,Gizo,0,IL,1547178600,81,31.8,34.94,9.0,0.5
148,Hualmay,56,PE,1547180731,94,-11.1,-77.61,19.09,1.66
149,Jackson,1,US,1547178960,77,35.61,-88.82,0.0,2.41
150,Carnarvon,0,ZA,1547180733,56,-30.97,22.13,9.71,1.26
151,Sayyan,0,YE,1547180734,71,15.17,44.32,-0.87,1.51
152,Sitka,12,US,1547180735,54,37.17,-99.65,7.54,7.16
153,Batticaloa,92,LK,1547180736,100,7.71,81.69,25.29,3.66
154,Torbay,90,CA,1547179200,100,47.66,-52.73,1.0,1.0
155,Korcula,88,HR,1547180738,100,42.96,17.14,-1.97,1.16
156,East London,40,ZA,1547179200,93,-33.02,27.91,19.0,5.01
157,Port Moresby,24,PG,1547180740,100,-9.47,147.16,27.79,6.56
158,Murgab,75,TM,1547179200,86,37.5,61.97,4.0,7.2
159,Touros,40,BR,1547179200,88,-5.2,-35.46,24.0,2.1
160,Gornopravdinsk,12,RU,1547180744,29,60.06,69.92,-28.97,1.16
161,Santa Maria,92,BR,1547180680,90,-29.69,-53.81,21.29,1.41
162,Coahuayana,0,MX,1547180747,73,18.62,-100.35,16.21,0.86
163,Yar-Sale,8,RU,1547180748,100,66.83,70.83,-30.74,1.76
164,Tecolutilla,36,MX,1547180749,85,18.28,-93.32,21.34,1.91
165,Hithadhoo,88,MV,1547180750,100,-0.6,73.08,27.21,1.31
166,Tabas,8,IR,1547175600,80,33.6,56.92,1.0,2.1
167,Kita,20,JP,1547179200,27,35.76,139.74,13.6,5.1
168,Elko,90,US,1547178960,92,40.83,-115.76,-1.1,2.6
169,Virginia Beach,1,US,1547179140,51,36.85,-75.98,0.6,9.8
170,Phan Thiet,20,VN,1547180680,83,10.93,108.1,27.56,7.21
171,Tagusao,88,PH,1547180755,91,9.19,117.81,26.81,4.66
172,Itabuna,40,BR,1547175600,94,-14.79,-39.28,25.0,1.5
173,Hasaki,20,JP,1547179200,27,35.73,140.83,12.0,7.7
174,San Quintin,0,PH,1547180757,58,17.54,120.52,27.89,1.81
175,Yulara,0,AU,1547179200,8,-25.24,130.99,42.0,5.7
176,Tynda,48,RU,1547180759,75,55.15,124.74,-24.94,1.06
177,Timra,20,SE,1547178600,48,62.49,17.33,4.0,5.7
178,Ribeira Grande,88,PT,1547180761,100,38.52,-28.7,15.39,13.11
179,Padang,20,ID,1547179200,74,-0.92,100.36,30.0,1.5
180,Karasburg,0,NA,1547180763,70,-28.01,18.75,8.71,1.36
181,Mandalgovi,0,MN,1547180764,56,45.76,106.27,-18.02,2.31
182,Los Llanos de Aridane,75,ES,1547179200,59,28.66,-17.92,16.0,3.6
183,Isangel,0,VU,1547180766,100,-19.55,169.27,26.69,3.01
184,Russell,0,AR,1547180767,98,-33.01,-68.8,5.91,0.96
185,Catuday,8,PH,1547180768,88,16.29,119.81,28.56,2.06
186,Saldanha,0,PT,1547180768,88,41.42,-6.55,-5.57,2.51
187,Tiarei,75,PF,1547179200,74,-17.53,-149.33,28.0,3.1
188,Port Elizabeth,1,US,1547178960,58,39.31,-74.98,-0.6,7.7
189,Kaitangata,64,NZ,1547180771,66,-46.28,169.85,14.29,10.26
190,Dingle,32,PH,1547180772,71,11.0,122.67,27.56,7.71
191,Holt,64,GB,1547178600,81,53.08,-2.88,8.0,3.6
192,Varnamo,92,SE,1547178600,100,57.19,14.04,2.0,2.6
193,Cabinda,80,AO,1547180776,100,-5.56,12.19,26.51,2.11
194,Talaya,40,RU,1547179200,75,55.79,84.89,-27.0,4.0
195,Hovd,75,NO,1547178600,84,63.83,10.7,3.0,23.1
196,Arandis,0,NA,1547180779,93,-22.42,14.98,11.96,1.11
197,Tabuk,64,PH,1547180780,64,17.41,121.44,24.79,1.21
198,Fortuna,0,ES,1547179200,51,38.18,-1.13,4.0,2.6
199,Amethi,0,IN,1547177400,82,26.76,81.16,13.0,1.26
200,Ambilobe,44,MG,1547180783,100,-13.19,49.05,22.79,1.31
201,Tumbes,40,PE,1547175600,33,-3.57,-80.46,32.0,1.46
202,Pocoes,64,BR,1547180787,96,-14.53,-40.37,20.76,1.51
203,Bambous Virieux,40,MU,1547179200,78,-20.34,57.76,28.0,4.6
204,Lakatoro,64,VU,1547180789,86,-16.11,167.42,28.34,1.81
205,Ihosy,76,MG,1547180790,95,-22.4,46.13,19.19,1.41
206,Golden,0,CA,1547180791,88,51.3,-116.96,-11.37,0.66
207,Granville,90,FR,1547179200,100,48.84,-1.6,8.0,1.0
208,Igrim,0,RU,1547180730,31,63.19,64.42,-29.49,2.41
209,Viedma,0,AR,1547180794,68,-40.81,-62.99,11.71,5.26
210,Inyonga,68,TZ,1547180795,98,-6.72,32.06,17.31,1.46
211,Codrington,40,AU,1547179200,40,-28.95,153.24,33.0,5.7
212,College,40,US,1547179080,70,64.86,-147.8,-32.8,1.41
213,Katakwi,64,UG,1547180798,50,1.91,33.96,20.91,3.51
214,San Ramon,48,NI,1547180799,92,12.92,-85.84,18.59,0.91
215,Dubki,40,RU,1547179200,80,43.02,46.84,1.0,6.0
216,Salalah,0,OM,1547178600,49,17.01,54.1,21.0,2.6
217,Ratnagiri,0,IN,1547180802,100,16.98,73.3,24.26,1.66
218,Nichinan,75,JP,1547179200,66,31.65,131.31,12.0,1.0
219,Lompoc,90,US,1547180100,87,34.64,-120.46,12.8,1.5
220,Lincoln,75,GB,1547178600,87,53.23,-0.54,6.0,4.1
221,Bara,0,NG,1547180824,39,10.41,10.6,16.76,3.31
222,Springbok,0,ZA,1547180826,86,-29.67,17.88,5.81,1.16
223,Tuatapere,88,NZ,1547180830,100,-46.13,167.69,11.81,7.11
224,Mizdah,68,LY,1547180713,62,31.45,12.98,3.71,3.71
225,Riyadh,0,SA,1547179200,52,24.63,46.72,7.0,0.51
226,Sri Aman,75,MY,1547179200,74,1.24,111.46,31.0,1.0
227,Eyl,100,SO,1547180851,100,7.98,49.82,23.04,7.01
228,Biak,36,ID,1547180859,87,-0.91,122.88,29.01,0.86
229,Prince Albert,90,CA,1547179200,84,53.2,-105.75,-14.0,2.6
230,Bilma,0,NE,1547180616,69,18.69,12.92,5.34,1.11
231,Faanui,92,PF,1547180642,100,-16.48,-151.75,29.04,7.31
232,Khatanga,12,RU,1547180884,0,71.98,102.47,-41.44,2.21
233,Jawhar,0,IN,1547180888,76,19.91,73.23,15.31,1.41
234,Ha Giang,92,VN,1547180890,99,22.83,104.99,14.71,0.36
235,Upernavik,20,GL,1547180890,100,72.79,-56.15,-20.87,3.46
236,Camacha,75,PT,1547177400,59,33.08,-16.33,16.0,1.0
237,Bourail,92,NC,1547180892,85,-21.57,165.5,25.64,2.76
238,Fuyu,0,CN,1547180893,51,47.79,124.46,-9.99,3.11
239,Srednekolymsk,56,RU,1547180894,44,67.46,153.71,-33.17,1.16
240,Tessalit,8,ML,1547180895,59,20.2,1.01,4.84,1.26
241,Portland,90,US,1547179680,92,45.52,-122.67,8.9,1.81
242,Westport,24,IE,1547180897,100,53.8,-9.52,2.19,1.51
243,Alindao,12,CF,1547180898,73,5.04,21.21,19.41,2.86
244,Luderitz,0,NA,1547180898,92,-26.65,15.16,13.96,1.36
245,Dandong,44,CN,1547180899,51,40.12,124.37,-0.62,1.46
246,Saint George,40,GR,1547180400,86,39.45,22.34,4.0,2.1
247,Yakeshi,0,CN,1547180901,68,49.28,120.73,-13.09,2.61
248,Bubaque,8,GW,1547180902,100,11.28,-15.83,25.41,1.01
249,Puerto Madryn,0,AR,1547180903,71,-42.77,-65.04,16.84,11.11
250,Port Blair,56,IN,1547180904,100,11.67,92.75,26.89,5.26
251,Ahipara,36,NZ,1547180905,67,-35.17,173.16,24.69,4.21
252,Kennett,20,US,1547180100,80,36.24,-90.06,0.0,3.1
253,Progreso,20,UY,1547179200,68,-34.68,-56.22,19.0,4.6
254,Svirsk,64,RU,1547180908,64,53.07,103.34,-18.37,0.76
255,Teya,5,MX,1547178240,68,21.05,-89.07,19.0,2.1
256,Edson,1,CA,1547179200,84,53.59,-116.44,-16.0,2.6
257,Ca Mau,64,VN,1547180910,91,9.18,105.15,26.34,7.61
258,Deloraine,0,CA,1547180911,65,49.18,-100.5,-18.44,0.71
259,Greaca,90,RO,1547177400,100,44.11,26.34,-1.0,2.1
260,Zhigansk,68,RU,1547180913,0,66.77,123.37,-36.09,2.56
261,Setermoen,90,NO,1547178600,85,68.86,18.35,0.0,12.9
262,Neuquen,0,AR,1547179200,71,-38.95,-68.06,11.0,3.46
263,Markova,48,RU,1547180787,64,52.21,104.21,-18.42,1.11
264,Jijiga,0,ET,1547180916,78,9.35,42.8,1.01,1.06
265,Harper,90,US,1547178900,46,30.3,-99.24,11.7,4.1
266,Verkhoyansk,56,RU,1547180918,0,67.55,133.39,-38.84,0.86
267,Naica,24,MX,1547180918,94,27.86,-105.49,13.81,2.06
268,Benton,90,US,1547178960,69,34.56,-92.59,6.1,2.6
269,Vao,88,EE,1547180920,90,59.1,26.19,-5.19,7.01
270,Kaspiyskiy,80,RU,1547180921,100,45.39,47.37,-7.09,1.66
271,Laela,88,TZ,1547180922,92,-8.57,32.05,15.89,0.61
272,Dalbandin,0,PK,1547180923,74,28.9,64.41,9.76,4.21
273,Sovetskiy,64,RU,1547180924,91,56.76,48.47,-11.74,4.21
274,Sungaipenuh,56,ID,1547180925,84,-2.08,101.38,23.31,0.86
275,Aksu,75,KZ,1547179200,75,52.04,76.93,-26.0,1.0
276,Pevek,36,RU,1547180927,71,69.7,170.27,-13.84,10.41
277,Praia da Vitoria,75,PT,1547175600,93,38.73,-27.07,14.0,5.86
278,Quatre Cocos,40,MU,1547179200,78,-20.21,57.76,28.0,4.6
279,Barrow,0,AR,1547180930,80,-38.31,-60.23,8.94,1.21
280,Kathmandu,20,NP,1547178600,81,27.71,85.32,10.0,1.0
281,Beringovskiy,68,RU,1547180931,90,63.05,179.32,-8.22,10.06
282,Pelym,48,RU,1547180665,74,61.01,62.0,-27.12,1.16
283,Bambanglipuro,20,ID,1547180933,85,-7.95,110.28,29.04,1.91
284,Launceston,75,AU,1547179200,44,-41.43,147.14,24.0,7.7
285,Oktyabrskiy,75,RU,1547179200,84,55.61,37.97,-9.0,1.0
286,Xining,0,CN,1547180935,29,36.62,101.77,-9.87,1.41
287,Vysokogornyy,8,RU,1547180936,60,50.1,139.13,-17.84,2.31
288,Orda,88,RU,1547180937,78,57.2,56.91,-11.82,4.11
289,Simav,92,TR,1547180670,97,39.09,28.98,5.21,5.01
290,Fairbanks,40,US,1547179080,70,64.84,-147.72,-32.8,1.41
291,Torzhok,64,RU,1547180940,91,57.04,34.97,-11.84,3.91
292,Ushtobe,24,KZ,1547180940,95,45.25,77.98,-9.69,1.31
293,Kralendijk,0,BQ,1547178900,83,12.15,-68.27,25.0,3.6
294,Gambela,0,ET,1547180942,70,8.25,34.59,12.91,1.76
295,Lamu,64,ID,1547180943,85,0.57,122.3,27.91,0.41
296,Yantai,68,CN,1547180944,100,37.53,121.39,3.41,2.41
297,Hospet,0,IN,1547180945,77,15.27,76.4,17.56,3.91
298,Haines Junction,8,CA,1547180946,0,60.75,-137.51,-41.82,0.96
299,Acqui Terme,0,IT,1547180400,26,44.68,8.47,6.0,4.6
300,Tautira,75,PF,1547179200,74,-17.73,-149.15,28.0,3.1
301,Udachnyy,64,RU,1547180950,39,66.42,112.4,-32.52,1.31
302,Namie,40,JP,1547179200,48,37.52,140.86,7.0,4.6
303,Vila Franca do Campo,40,PT,1547177400,93,37.72,-25.43,13.0,3.6
304,Bima,76,ID,1547180953,80,-8.45,118.73,29.09,1.21
305,Rocha,64,UY,1547180749,88,-34.48,-54.34,18.01,1.76
306,Cayenne,75,GF,1547179200,78,4.94,-52.33,26.0,4.1
307,Sanchursk,48,RU,1547180955,80,56.94,47.25,-11.99,3.31
308,Zhireken,24,RU,1547180957,65,52.82,117.29,-18.84,1.21
309,Mehamn,0,NO,1547178600,68,71.03,27.85,-4.0,8.2
310,Nanortalik,32,GL,1547180874,84,60.14,-45.24,-2.24,2.56
311,Mareeba,75,AU,1547179200,88,-16.99,145.42,27.0,4.1
312,Broken Hill,0,AU,1547179200,24,-31.97,141.45,38.0,4.1
313,Grindavik,75,IS,1547179200,100,63.84,-22.43,7.0,7.2
314,Pundaguitan,92,PH,1547180963,100,6.37,126.17,25.46,3.21
315,Santa Rosalia,40,IT,1547180400,81,38.07,13.27,6.0,3.1
316,Naron,0,ES,1547179200,56,43.52,-8.15,6.0,11.51
317,Syracuse,90,US,1547180280,85,43.05,-76.15,-7.8,5.7
318,Ambon,90,FR,1547179200,86,47.55,-2.56,4.0,1.5
319,Central Point,1,US,1547180100,46,42.38,-122.91,11.7,5.1
320,Polyanka,80,UA,1547180970,83,50.26,27.69,-12.57,4.31
321,Dicamay,88,PH,1547180971,100,16.76,122.0,22.89,1.86
322,Benjamin Constant,20,BR,1547179200,100,-4.38,-70.03,24.0,1.86
323,Singaraja,32,ID,1547180973,82,-8.11,115.08,28.16,0.71
324,Lorengau,0,PG,1547180974,92,-2.02,147.27,29.96,4.06
325,Narsaq,32,GL,1547180975,59,60.91,-46.05,-10.22,1.71
326,Nizwa,0,OM,1547180725,86,22.93,57.53,9.39,1.31
327,Cape Coast,8,GH,1547180976,91,5.11,-1.24,23.91,1.21
328,Kattivakkam,20,IN,1547179200,69,13.22,80.32,27.0,2.1
329,Zarubino,0,RU,1547180979,81,42.65,131.06,-0.92,1.06
330,Iqaluit,90,CA,1547179200,62,63.75,-68.52,-26.0,4.6
331,Albanel,76,CA,1547180980,61,48.88,-72.44,-11.12,6.91
332,Le Pradet,90,FR,1547179200,81,46.44,1.83,0.0,2.1
333,Bonthe,0,SL,1547180983,88,7.53,-12.5,25.54,2.06
334,Halmstad,92,SE,1547178600,100,56.67,12.86,5.0,5.1
335,Qandala,68,SO,1547180985,100,11.47,49.87,16.94,0.81
336,Mexicali,5,MX,1547178960,62,32.62,-115.44,14.0,1.5
337,Hagi,75,JP,1547179200,61,34.43,131.51,12.0,1.0
338,Awbari,0,LY,1547180988,71,26.59,12.77,-0.12,1.56
339,Chara,40,GR,1547180400,86,39.42,22.43,4.0,2.1
340,Sorland,75,NO,1547178600,74,67.67,12.69,3.0,15.4
341,Mabaruma,68,GY,1547180990,84,8.2,-59.78,25.14,3.11
342,Mecca,0,SA,1547180721,81,21.43,39.83,11.01,1.21
343,Talnakh,36,RU,1547180993,46,69.49,88.39,-33.94,1.61
344,Rio Gallegos,40,AR,1547179200,76,-51.62,-69.22,12.0,1.41
345,Ginir,0,ET,1547180995,63,7.14,40.71,6.51,0.91
346,Ostrovnoy,36,RU,1547180770,88,68.05,39.51,-6.79,12.66
347,Jabinyanah,40,TN,1547179200,70,35.03,10.91,8.0,4.1
348,Salinas,90,US,1547179200,86,36.67,-121.66,11.1,1.16
349,Tahe,0,CN,1547180999,68,52.34,124.71,-14.09,1.11
350,Batamshinskiy,0,KZ,1547179200,77,50.56,58.27,-17.0,7.0
351,Soe,80,EE,1547178600,73,57.91,26.05,-5.0,8.2
352,Formosa do Rio Preto,76,BR,1547181001,86,-11.04,-45.19,20.23,1.92
353,Dunedin,0,NZ,1547180711,60,-45.87,170.5,16.69,6.91
354,Sayan,24,YE,1547181005,68,15.88,43.46,24.38,1.52
355,Bahua,0,IN,1547181019,51,25.85,80.63,20.41,2.12
356,Husavik,88,CA,1547181022,91,50.56,-96.99,-11.87,1.82
357,Hirara,40,JP,1547179200,78,24.8,125.28,26.0,5.7
358,Goderich,48,CA,1547181024,80,43.74,-81.71,-6.92,5.02
359,Nizhniy Odes,68,RU,1547181024,81,63.64,54.86,-20.52,2.82
360,Bayir,75,TR,1547178600,71,37.27,28.22,13.0,2.1
361,Amapa,75,HN,1547179200,94,15.09,-87.97,22.0,0.72
362,Sladkovo,80,RU,1547180745,79,55.53,70.34,-15.29,4.71
363,Maumere,36,ID,1547181029,100,-8.63,122.22,28.08,2.57
364,Ilhabela,0,BR,1547181030,95,-23.78,-45.36,26.73,4.87
365,Port Lincoln,92,AU,1547180733,53,-34.72,135.86,27.94,5.36
366,Margate,20,AU,1547179200,54,-43.03,147.26,29.0,6.7
367,Kahului,40,US,1547178960,66,20.89,-156.47,25.6,4.6
368,Sao Filipe,0,CV,1547181036,97,14.9,-24.5,22.36,6.02
369,San Eugenio,0,AR,1547181037,91,-32.08,-61.12,14.88,4.57
370,Conde,88,BR,1547181038,94,-11.81,-37.61,25.41,2.92
371,Guerrero Negro,0,MX,1547180802,100,27.97,-114.04,11.16,2.06
372,Kangundo,75,KE,1547179200,82,-1.3,37.35,18.0,3.1
373,Meadow Lake,8,CA,1547181040,73,54.13,-108.44,-16.45,1.12
374,Ixtapa,40,MX,1547178540,100,20.71,-105.21,25.0,1.5
375,Belturbet,80,GB,1547181042,90,54.1,-7.44,4.56,2.97
376,Faya,0,SA,1547179200,93,18.39,42.45,10.0,1.82
377,Nome,1,US,1547180100,76,30.04,-94.42,10.7,3.22
378,Boa Vista,0,BR,1547179200,61,2.82,-60.67,27.0,3.1
379,Thinadhoo,80,MV,1547181046,100,0.53,72.93,26.71,1.42
380,Kisangani,8,CD,1547181047,98,0.52,25.21,22.13,1.42
381,Nioki,92,CD,1547181048,97,-2.72,17.69,22.48,1.52
382,Halifax,75,CA,1547179200,79,44.65,-63.58,-2.0,4.6
383,Meybod,0,IR,1547179200,82,32.25,54.02,0.0,2.1
384,Te Anau,0,NZ,1547181051,48,-45.41,167.72,14.51,2.57
385,Shingu,20,JP,1547179200,46,33.72,135.99,12.0,8.2
386,Aden,88,YE,1547181052,100,12.79,45.03,23.81,4.67
387,Dasoguz,90,TM,1547179200,100,41.84,59.97,-2.0,4.1
388,Sechura,92,PE,1547181054,90,-5.56,-80.82,22.91,2.32
389,Kragero,0,NO,1547178600,75,58.87,9.41,5.0,2.6
390,Sabang,92,PH,1547181056,100,13.72,123.58,24.41,3.97
391,Kalyazin,68,RU,1547181048,90,57.24,37.84,-10.7,4.17
392,Saint Anthony,90,US,1547180100,88,43.97,-111.68,0.0,1.5
393,Dhemaji,0,IN,1547179200,68,27.48,94.56,19.0,1.5
394,Katsuura,40,JP,1547179200,62,33.93,134.5,11.0,6.7
395,Caraballeda,44,VE,1547180892,99,10.61,-66.85,24.26,4.36
396,Saint-Augustin,0,FR,1547179200,98,44.83,-0.61,0.0,2.6
397,Batagay-Alyta,48,RU,1547181063,55,67.8,130.41,-36.52,1.42
398,Rio Grande,32,BR,1547180848,100,-32.03,-52.1,20.56,3.11
399,Marzuq,0,YE,1547181065,28,14.4,46.47,16.83,1.62
400,Muravlenko,20,RU,1547181066,34,63.79,74.5,-30.7,2.47
401,Half Moon Bay,90,US,1547179980,100,37.46,-122.43,12.2,1.5
402,Toora-Khem,64,RU,1547181043,72,52.47,96.11,-16.12,0.77
403,Belmopan,75,BZ,1547179200,94,17.25,-88.77,20.0,3.1
404,Baker City,1,US,1547178780,88,44.77,-117.83,-0.6,1.17
405,Severo-Kurilsk,0,RU,1547181072,100,50.68,156.12,-9.25,1.27
406,Anadyr,90,RU,1547179200,72,64.73,177.51,-12.0,4.0
407,Pacific Grove,90,US,1547180760,92,36.62,-121.92,11.1,2.6
408,Yeppoon,20,AU,1547179200,55,-23.13,150.74,30.0,6.2
409,Mojo,0,ET,1547181076,48,8.59,39.12,15.33,3.42
410,Tura,0,IN,1547181077,66,25.52,90.21,20.86,2.67
411,Coihaique,0,CL,1547179200,50,-45.58,-72.07,11.0,1.5
412,Harbour Breton,92,CA,1547181078,93,47.48,-55.8,0.66,1.92
413,Kununurra,0,AU,1547179200,44,-15.77,128.74,37.0,1.5
414,Vestmannaeyjar,92,IS,1547181081,98,63.44,-20.27,6.83,8.57
415,Dwarka,20,IN,1547179200,72,28.58,77.04,15.0,1.5
416,Omboue,80,GA,1547180932,100,-1.57,9.26,25.69,0.71
417,Namibe,0,AO,1547181086,100,-15.19,12.15,23.06,0.57
418,Tezu,0,IN,1547181087,41,27.93,96.16,15.51,0.87
419,Aquiraz,75,BR,1547179200,83,-3.9,-38.39,27.0,5.1
420,Ulaangom,0,MN,1547181088,68,49.98,92.07,-12.62,1.87
421,Huarmey,92,PE,1547181088,94,-10.07,-78.15,17.63,1.42
422,Maldonado,40,UY,1547179200,72,-34.91,-54.96,19.0,4.1
423,Marystown,92,CA,1547181092,96,47.17,-55.16,-0.92,1.37
424,Yuma,1,US,1547179140,69,32.73,-114.62,14.0,2.6
425,Saint-Pierre,92,FR,1547179200,100,48.95,4.24,0.0,2.6
426,Walvis Bay,0,NA,1547179200,82,-22.95,14.51,13.0,1.0
427,Anloga,20,GH,1547179200,88,5.79,0.9,27.0,1.0
428,Rincon,1,US,1547180100,95,32.3,-81.24,6.0,2.42
429,Kangalassy,56,RU,1547179200,66,62.35,129.97,-34.0,4.0
430,Hudiksvall,0,SE,1547181099,82,61.73,17.1,1.61,5.32
431,Tabou,32,CI,1547181102,100,4.42,-7.36,27.16,2.07
432,Atamanovka,24,RU,1547179200,77,51.92,113.65,-18.0,1.0
433,Sola,75,NO,1547178600,87,58.89,5.65,8.0,7.7
434,Vostok,0,RU,1547181129,57,46.45,135.83,-15.0,1.32
435,Nicoya,0,CR,1547179200,61,10.15,-85.45,26.0,6.7
436,Suntar,48,RU,1547181138,70,62.16,117.65,-18.95,1.17
437,Kidal,0,ML,1547181142,62,18.44,1.41,5.41,1.52
438,Umm Lajj,12,SA,1547181105,97,25.02,37.27,17.21,3.12
439,Izumo,75,JP,1547179200,57,35.37,132.75,10.0,0.5
440,Najran,5,SA,1547175600,66,17.54,44.22,12.0,1.17
441,Porbandar,0,IN,1547179200,55,21.64,69.61,16.0,1.5
442,Kloulklubed,90,PW,1547178600,83,7.04,134.26,27.0,5.1
443,Mao,75,DO,1547179200,94,19.55,-71.08,23.0,2.1
444,Pacifica,90,US,1547179980,100,37.61,-122.49,12.2,1.5
445,Baiyin,0,CN,1547179200,53,36.55,104.13,-5.0,3.0
446,Hofn,92,IS,1547181191,100,64.25,-15.21,2.26,7.47
447,Eydhafushi,0,MV,1547181193,100,5.1,73.07,27.58,4.62
448,Ust-Barguzin,48,RU,1547181194,63,53.41,109.03,-10.05,1.32
449,Hlobyne,88,UA,1547181196,100,49.39,33.25,-2.05,6.57
450,Oliver,75,CA,1547179200,80,49.18,-119.55,4.0,7.2
451,Ilulissat,0,GL,1547178600,52,69.22,-51.1,-22.0,3.1
452,Palmer,0,AU,1547179200,12,-34.85,139.16,34.0,3.6
453,Nuuk,0,GL,1547178600,72,64.17,-51.74,-8.0,7.7
454,Longfeng,0,CN,1547179200,53,31.05,103.87,10.0,2.0
455,Karratha,0,AU,1547180920,13,-20.74,116.85,41.81,3.56
456,Royan,44,FR,1547179200,100,45.62,-1.03,1.0,1.0
457,Tahoua,0,NE,1547181202,68,14.89,5.26,11.91,1.42
458,Taoudenni,0,ML,1547181204,60,22.68,-3.98,2.13,2.32
459,Leshukonskoye,92,RU,1547181133,78,64.9,45.76,-8.27,5.47
460,Nhulunbuy,0,AU,1547179200,47,-12.18,136.78,35.0,5.1
461,Chemal,0,RU,1547181206,65,51.41,86.0,-11.52,0.97
462,Mitu,0,IR,1547181207,63,36.2,46.09,-9.6,1.07
463,Nyurba,36,RU,1547181208,68,63.29,118.35,-23.27,1.22
464,Alim,0,NG,1547181209,90,7.18,7.33,21.31,2.52
465,Adrar,0,DZ,1547179200,32,27.87,-0.29,5.0,2.6
466,Havre-Saint-Pierre,75,CA,1547179200,92,50.23,-63.6,-2.0,6.2
467,Alekseyevsk,88,RU,1547181211,60,57.84,108.35,-7.95,3.27
468,Moberly,1,US,1547181300,74,39.42,-92.44,-0.1,4.6
469,Grand Forks,1,US,1547180160,85,47.91,-97.06,-11.3,2.6
470,Khovu-Aksy,68,RU,1547181215,65,51.13,93.72,-19.75,0.52
471,Traiguen,0,CL,1547181216,89,-38.25,-72.68,4.23,1.07
472,Bereda,0,ES,1547179200,56,43.27,-7.54,6.0,1.62
473,Nishihara,40,JP,1547179200,24,35.74,139.53,13.6,6.7
474,Gunnedah,68,AU,1547179200,23,-30.98,150.25,35.0,3.1
475,Ivnya,90,RU,1547179200,100,51.06,36.14,-4.0,2.0
476,Ikungi,0,TZ,1547181220,65,-5.13,34.77,21.98,1.17
477,Buala,80,SB,1547181221,91,-8.15,159.59,28.73,1.47
478,Poum,88,MK,1547181222,84,41.28,20.71,-7.67,0.52
479,Westerly,1,US,1547178960,57,41.38,-71.83,-1.1,6.2
480,Rovaniemi,0,FI,1547178600,86,66.5,25.72,-3.0,9.8
481,Dondaicha,0,IN,1547181225,52,21.33,74.56,24.23,1.92
482,Hamilton,75,BM,1547178900,63,32.3,-64.78,16.0,10.3
483,Piacabucu,92,BR,1547181227,91,-10.41,-36.43,24.13,1.77
484,Radzyn Podlaski,90,PL,1547179200,92,51.78,22.62,-10.0,1.0
485,Ambovombe,68,MG,1547181228,98,-25.18,46.09,26.36,3.22
486,Hambantota,20,LK,1547176200,78,6.12,81.12,28.0,5.1
487,Okhotsk,0,RU,1547181230,100,59.36,143.24,-23.17,3.87
488,Coos Bay,1,US,1547178960,96,43.37,-124.22,10.0,2.6
489,Pontefract,40,GB,1547180400,86,53.69,-1.31,7.0,4.1
490,El Tocuyo,92,VE,1547181233,94,9.79,-69.8,17.21,0.72
491,Cap Malheureux,40,MU,1547179200,78,-19.98,57.61,28.0,4.6
492,Nelson Bay,12,AU,1547179200,55,-32.72,152.14,30.0,7.2
493,Jiuquan,0,CN,1547181236,74,39.73,98.49,-6.6,0.97
494,Inhambane,20,MZ,1547175600,88,-23.87,35.38,28.0,4.1
495,Vagay,68,RU,1547181238,81,57.94,69.02,-18.5,1.62
496,Aksarka,68,RU,1547181152,53,66.56,67.8,-27.85,5.27
497,Cam Ranh,20,VN,1547179200,96,11.92,109.15,30.0,7.2
498,Maxixe,20,MZ,1547175600,88,-23.86,35.35,28.0,4.1
499,Kikwit,64,CD,1547181180,91,-5.04,18.82,23.56,1.42
500,Otradnoye,75,RU,1547179200,85,59.77,30.8,-5.0,5.0
501,Longyearbyen,90,NO,1547178600,72,78.22,15.63,-10.0,13.9
502,Lawrence,90,US,1547178900,54,38.97,-95.24,4.4,4.1
503,Salinopolis,20,BR,1547181246,100,-0.61,-47.36,24.61,2.12
504,Alvaraes,64,BR,1547181247,96,-3.22,-64.8,24.13,2.57
505,Tarboro,1,US,1547180100,49,35.9,-77.54,0.0,2.6
506,Barcelos,0,PT,1547179200,48,41.53,-8.62,7.0,7.2
507,Caohai,0,CN,1547181249,54,26.87,104.28,13.36,0.72
508,Henties Bay,48,NA,1547181010,100,-22.12,14.28,16.06,0.72
509,Kem,8,UG,1547181251,37,2.68,33.77,24.38,3.82
510,Kautokeino,12,NO,1547180989,78,69.01,23.04,-2.94,5.31
511,West Wendover,1,US,1547178960,92,40.74,-114.07,-2.2,2.1
512,Aklavik,90,CA,1547179200,67,68.22,-135.01,-31.0,1.0
513,Moju,40,BR,1547179200,88,-1.89,-48.77,24.0,1.0
514,Mount Isa,40,AU,1547179200,27,-20.73,139.49,39.0,6.7
515,Wanaka,0,NZ,1547181256,28,-44.7,169.14,17.56,1.97
516,Garowe,0,SO,1547181257,71,8.41,48.48,20.73,4.12
517,Iralaya,88,HN,1547181258,88,15.0,-83.23,24.71,3.02
518,Amurzet,0,CN,1547181259,63,47.69,131.09,-7.8,3.02
519,Solnechnyy,0,RU,1547181260,78,50.72,136.64,-18.25,1.32
520,Green River,90,US,1547179380,88,41.53,-109.47,-3.3,3.1
521,Vetralla,0,IT,1547180400,74,42.32,12.06,1.0,3.1
522,Erenhot,0,CN,1547181263,46,43.65,111.97,-3.3,6.02
523,Muros,0,ES,1547179200,64,42.77,-9.06,3.0,3.6
524,Divnogorsk,40,RU,1547179200,76,55.96,92.38,-23.0,1.0
525,Khash,0,IR,1547180983,89,28.22,61.21,1.19,2.86
526,Yumen,0,CN,1547181266,86,40.29,97.04,-5.42,5.47
527,Alugan,36,PH,1547181267,86,12.22,125.48,27.63,7.17
528,Luanda,20,AO,1547175600,83,-8.83,13.24,26.0,1.0
529,Mount Darwin,36,ZW,1547181270,99,-16.77,31.58,22.86,1.47
530,Itarema,92,BR,1547181271,95,-2.92,-39.92,23.31,1.82
531,Swan Hill,0,AU,1547181272,45,-35.34,143.56,31.33,2.07
532,Soderhamn,8,SE,1547181273,68,61.3,17.06,1.01,4.07
533,Pangnirtung,8,CA,1547181273,41,66.15,-65.72,-32.5,1.47
534,Marsh Harbour,76,BS,1547181020,100,26.54,-77.06,20.96,5.92
535,Oxelosund,75,SE,1547178600,100,58.67,17.1,1.0,6.7
536,Labytnangi,32,RU,1547181282,32,66.66,66.39,-30.1,3.27
537,Deniliquin,0,AU,1547181283,30,-35.53,144.96,34.51,3.67
538,Bulawayo,12,ZW,1547181284,98,-20.16,28.59,21.56,1.97
539,Iquitos,0,PE,1547179200,88,-3.75,-73.25,24.0,1.62
540,Port Macquarie,0,AU,1547179200,54,-31.43,152.91,29.0,9.8
541,Thompson,40,CA,1547179200,75,55.74,-97.86,-25.0,3.6
542,Grand-Santi,12,GF,1547181293,95,4.27,-54.38,22.11,1.32
543,Prokopyevsk,48,RU,1547181294,79,53.89,86.74,-15.42,1.87
544,Samoded,88,RU,1547181295,75,63.61,40.52,-6.2,6.92
545,Skogn,75,NO,1547178600,88,63.7,11.19,2.0,23.1
546,Kawalu,56,ID,1547181270,100,-7.38,108.21,23.56,1.12
547,Semporna,75,MY,1547179200,66,4.48,118.61,32.0,2.1
548,Norwich,92,GB,1547178960,100,52.63,1.29,7.0,3.1
549,Pudozh,80,RU,1547181299,84,61.81,36.54,-7.6,9.97
550,Nouadhibou,0,MR,1547181300,77,20.93,-17.03,14.26,4.02
551,Coxim,44,BR,1547181301,91,-18.5,-54.75,22.01,1.22
